City_ID,City,Country,Lat,Lng,Max Temp,Humidity,Cloudiness,Wind Speed,Current Description
0,Camacari,BR,-12.6975,-38.3242,82.17,80,71,7.07,broken clouds
1,Bardiyah,LY,31.7561,25.0865,65.88,64,0,7.87,clear sky
2,Emerald,AU,-23.5333,148.1667,68.34,40,86,13.18,overcast clouds
3,Galashiels,GB,55.6146,-2.807,37.53,91,84,2.55,broken clouds
4,Punta Arenas,CL,-53.15,-70.9167,64.51,45,0,26.46,clear sky
5,Kodiak,US,57.79,-152.4072,36.91,65,100,13.8,overcast clouds
6,Nikolskoye,RU,59.7035,30.7861,26.49,81,100,6.89,overcast clouds
7,Ushuaia,AR,-54.8,-68.3,62.22,55,75,10.36,moderate rain
8,Dutlwe,BW,-23.9833,23.9,83.23,28,69,3.8,broken clouds
9,Busselton,AU,-33.65,115.3333,61.02,79,3,7.94,clear sky
10,Vaini,TO,-21.2,-175.2,78.64,80,13,14.81,few clouds
11,Rikitea,PF,-23.1203,-134.9692,73.81,85,95,12.44,light rain
12,Chokurdakh,RU,70.6333,147.9167,-34.78,100,84,1.88,broken clouds
13,Ribeira Grande,PT,38.5167,-28.7,64.8,88,75,16.11,broken clouds
14,Chuy,UY,-33.6971,-53.4616,69.03,63,63,11.68,broken clouds
15,Cabo San Lucas,MX,22.8909,-109.9124,83.61,55,0,11.5,clear sky
16,Saint-Philippe,RE,-21.3585,55.7679,74.79,83,100,5.91,overcast clouds
17,Hermanus,ZA,-34.4187,19.2345,63.81,73,92,7.99,overcast clouds
18,Kungurtug,RU,50.5994,97.5228,5.95,93,94,1.32,overcast clouds
19,Clyde River,CA,70.4692,-68.5914,7.03,72,100,29.93,haze
20,Santa Rosa,PH,14.3122,121.1114,80.58,86,100,6.15,overcast clouds
21,Bathsheba,BB,13.2167,-59.5167,83.01,74,20,21.85,few clouds
22,Igrim,RU,63.1906,64.4162,-14.78,99,6,1.23,clear sky
23,Hoquiam,US,46.9809,-123.8893,53.58,92,100,21.85,moderate rain
24,Shimoda,JP,34.6667,138.95,58.66,91,100,15.97,overcast clouds
25,Statesboro,US,32.4488,-81.7832,67.53,48,100,6.91,overcast clouds
26,Gari,RU,59.4307,62.3497,-3.87,99,16,1.1,few clouds
27,Pisco,PE,-13.7,-76.2167,69.85,73,0,10.36,clear sky
28,Kapaa,US,22.0752,-159.319,79.12,73,75,12.66,broken clouds
29,Lebu,CL,-37.6167,-73.65,62.71,75,17,14.88,few clouds
30,Port Elizabeth,ZA,-33.918,25.5701,69.31,83,0,11.5,clear sky
31,Provideniya,RU,64.3833,-173.3,3.18,85,100,11.77,overcast clouds
32,Faanui,PF,-16.4833,-151.75,79.02,79,4,3.83,clear sky
33,Dikson,RU,73.5069,80.5464,-12.17,93,100,15.21,overcast clouds
34,Poso,ID,-1.3959,120.7524,77.59,81,100,2.64,overcast clouds
35,Cayenne,GF,4.9333,-52.3333,84.24,65,20,11.5,few clouds
36,Jardim,BR,-21.4803,-56.1381,84.63,53,74,9.55,broken clouds
37,Hithadhoo,MV,-0.6,73.0833,80.51,78,16,12.21,few clouds
38,Bengkulu,ID,-3.8004,102.2655,75.47,91,100,11.59,heavy intensity rain
39,Praya,CV,14.9215,-23.5087,79.34,65,0,13.8,clear sky
40,Dakar,SN,14.6937,-17.4441,86.88,59,82,17.4,broken clouds
41,Key West,US,24.5557,-81.7826,91.4,78,40,9.22,scattered clouds
42,Bluff,NZ,-46.6,168.3333,55.8,73,17,9.42,few clouds
43,Hobart,AU,-42.8794,147.3294,48.06,70,82,1.01,broken clouds
44,Cape Town,ZA,-33.9258,18.4232,66.61,76,20,11.5,few clouds
45,Gimli,CA,50.6336,-96.9907,32.02,69,7,4.61,clear sky
46,Jamestown,US,42.097,-79.2353,44.24,42,0,16.11,clear sky
47,Cidreira,BR,-30.1811,-50.2056,69.37,93,92,2.77,heavy intensity rain
48,Alofi,NU,-19.0595,-169.9187,78.69,73,6,12.66,clear sky
49,College Place,US,46.0493,-118.3883,49.57,93,20,0.0,few clouds
50,Kaitangata,NZ,-46.2817,169.8464,51.85,82,18,6.35,few clouds
51,Bonanza,NI,14.0289,-84.591,82.89,62,33,5.01,scattered clouds
52,Mumford,GH,5.2618,-0.759,80.22,81,27,6.89,scattered clouds
53,Sao Filipe,CV,14.8961,-24.4956,80.37,55,25,15.3,scattered clouds
54,Hilo,US,19.7297,-155.09,74.25,83,100,6.91,light rain
55,New Norfolk,AU,-42.7826,147.0587,47.71,60,79,5.01,broken clouds
56,Tabas,IR,33.5959,56.9244,52.02,30,0,4.61,clear sky
57,Upernavik,GL,72.7868,-56.1549,14.76,85,100,7.31,overcast clouds
58,Codajas,BR,-3.8367,-62.0569,83.39,67,100,5.01,overcast clouds
59,Bambous Virieux,MU,-20.3428,57.7575,75.45,83,40,3.44,scattered clouds
60,Itupiranga,BR,-5.1347,-49.3267,95.32,52,79,3.27,broken clouds
61,Ahipara,NZ,-35.1667,173.1667,59.74,79,13,18.63,few clouds
62,Hauterive,FR,46.0901,3.4459,43.56,90,12,5.17,few clouds
63,Starokorsunskaya,RU,45.0573,39.3161,49.93,87,75,17.9,broken clouds
64,Nianzishan,CN,47.5167,122.8833,21.4,85,100,2.55,light snow
65,Sitka,US,57.0531,-135.33,44.49,87,100,4.61,light rain
66,Saint-Augustin,CA,51.226,-58.6502,23.16,93,100,5.3,overcast clouds
67,Port Macquarie,AU,-31.4333,152.9167,52.9,61,41,5.57,scattered clouds
68,Avarua,CK,-21.2078,-159.775,73.45,94,75,5.75,broken clouds
69,Nicoya,CR,10.1483,-85.452,80.65,76,100,1.86,overcast clouds
70,Saskylakh,RU,71.9167,114.0833,-36.17,100,36,1.79,scattered clouds
71,Pevek,RU,69.7008,170.3133,-24.05,100,100,5.99,overcast clouds
72,Atuona,PF,-9.8,-139.0333,78.6,73,3,17.78,clear sky
73,Chapais,CA,49.7834,-74.8492,19.18,85,100,11.56,overcast clouds
74,Cockburn Town,TC,21.4612,-71.1419,84.16,65,40,17.27,scattered clouds
75,Campbell River,CA,50.0163,-125.2446,44.6,100,100,5.75,mist
76,Tuatapere,NZ,-46.1333,167.6833,51.78,71,4,5.03,clear sky
77,Saldanha,ZA,-33.0117,17.9442,61.41,86,0,8.3,clear sky
78,Ponta Delgada,PT,37.7333,-25.6667,65.5,94,75,11.5,broken clouds
79,San Quintin,MX,30.4833,-115.95,68.61,27,77,5.79,broken clouds
80,Norman Wells,CA,65.282,-126.8329,17.64,86,100,8.05,light snow
81,Longyearbyen,SJ,78.2186,15.6401,35.44,80,75,14.97,broken clouds
82,Sechura,PE,-5.5569,-80.8222,72.97,63,29,14.97,scattered clouds
83,Brae,GB,60.3964,-1.353,44.28,82,100,35.63,light rain
84,Miraflores,MX,19.2167,-98.8083,71.98,49,61,2.62,broken clouds
85,Tuktoyaktuk,CA,69.4541,-133.0374,17.6,93,100,16.11,overcast clouds
86,Ponta Do Sol,PT,32.6667,-17.1,70.72,78,65,3.13,broken clouds
87,Los Llanos De Aridane,ES,28.6585,-17.9182,65.95,80,75,11.5,broken clouds
88,Pauini,BR,-7.7136,-66.9764,74.1,98,100,0.36,overcast clouds
89,Fortuna,US,40.5982,-124.1573,56.93,77,100,5.75,overcast clouds
90,Tasiilaq,GL,65.6145,-37.6368,37.56,95,100,18.19,light rain
91,Hovd,MN,48.0056,91.6419,21.6,57,61,8.12,broken clouds
92,Westport,US,41.1415,-73.3579,51.1,46,0,11.5,clear sky
93,Grindavik,IS,63.8424,-22.4338,39.15,75,0,13.8,clear sky
94,Mataura,NZ,-46.1927,168.8643,55.47,52,0,6.93,clear sky
95,Bilma,NE,18.6853,12.9164,71.83,15,37,7.65,scattered clouds
96,San Patricio,US,28.017,-97.5169,53.87,81,100,9.86,overcast clouds
97,Georgetown,MY,5.4112,100.3354,80.53,91,40,3.44,scattered clouds
98,Port Blair,IN,11.6667,92.75,78.84,89,75,2.3,mist
99,Jaguarao,BR,-32.5661,-53.3758,70.92,59,40,9.91,scattered clouds
100,Coos Bay,US,43.3665,-124.2179,58.98,89,100,11.5,overcast clouds
101,Kilindoni,TZ,-7.9139,39.6668,79.57,81,1,13.67,clear sky
102,Northam,GB,51.0333,-4.2167,48.25,77,100,16.02,overcast clouds
103,Mahebourg,MU,-20.4081,57.7,75.49,83,40,3.44,scattered clouds
104,Thompson,CA,55.7435,-97.8558,23.16,93,100,2.3,mist
105,Ola,RU,59.5833,151.2833,12.47,74,100,11.54,overcast clouds
106,Nyaunglebin,MM,17.95,96.7333,71.98,86,9,5.12,clear sky
107,Riyadh,SA,24.6877,46.7219,60.94,24,0,3.69,clear sky
108,Imeni Zhelyabova,RU,58.9544,36.5956,24.28,95,100,8.86,light snow
109,Aragarcas,BR,-15.8975,-52.2508,86.65,62,75,8.05,light rain
110,Guerrero Negro,MX,27.9769,-114.0611,73.02,27,8,2.89,clear sky
111,Rio Gallegos,AR,-51.6226,-69.2181,73.45,31,40,18.41,scattered clouds
112,Douglas,US,41.3,-96.167,60.85,25,0,9.22,clear sky
113,Tarauaca,BR,-8.1614,-70.7656,78.66,88,100,2.1,overcast clouds
114,Ballina,AU,-28.8667,153.5667,62.02,78,100,6.26,overcast clouds
115,Alta Floresta,BR,-9.8756,-56.0861,85.82,66,20,5.75,few clouds
116,Malanje,AO,-9.5402,16.341,64.67,97,100,1.83,light rain
117,Caravelas,BR,-17.7125,-39.2481,74.79,82,85,7.02,overcast clouds
118,Albany,US,42.6001,-73.9662,46.81,46,94,2.51,overcast clouds
119,Ferkessedougou,CI,9.6,-5.2,78.01,23,57,4.0,broken clouds
120,Port Hueneme,US,34.1478,-119.1951,80.38,16,0,10.36,clear sky
121,Hasaki,JP,35.7333,140.8333,57.6,64,100,14.74,overcast clouds
122,Esperance,AU,-33.8667,121.9,58.59,65,100,16.51,overcast clouds
123,Olafsvik,IS,64.8945,-23.7142,40.86,67,22,10.25,few clouds
124,Puerto Ayora,EC,-0.7393,-90.3518,78.76,92,65,8.99,broken clouds
125,Bethel,US,41.3712,-73.414,49.35,45,0,8.05,clear sky
126,Souillac,MU,-20.5167,57.5167,75.58,83,40,3.44,scattered clouds
127,Smoky Lake,CA,54.1169,-112.4686,38.12,65,100,3.44,overcast clouds
128,Ntcheu,MW,-14.8203,34.6359,70.63,71,87,3.0,light rain
129,Dingle,PH,10.9995,122.6711,75.34,92,83,5.46,broken clouds
130,Necochea,AR,-38.5473,-58.7368,63.66,39,0,6.33,clear sky
131,Longyan,CN,25.1072,117.0225,68.99,99,100,2.24,overcast clouds
132,Qaanaaq,GL,77.484,-69.3632,8.73,82,99,4.9,overcast clouds
133,Hualmay,PE,-11.0964,-77.6139,69.76,74,13,8.52,few clouds
134,Sakaiminato,JP,35.55,133.2333,51.78,100,75,2.3,broken clouds
135,Takaka,NZ,-40.85,172.8,57.56,58,41,8.7,light rain
136,Luderitz,NA,-26.6481,15.1594,63.99,70,4,5.01,clear sky
137,Severnyy,RU,50.677,36.5532,32.04,93,100,13.42,overcast clouds
138,Kamenka,RU,51.3223,42.7678,46.27,96,100,15.84,light rain
139,Yellowknife,CA,62.456,-114.3525,28.92,93,100,11.99,light snow
140,Gamba,GA,-2.65,10.0,77.4,87,35,2.93,scattered clouds
141,Vanavara,RU,60.34,102.2797,-8.7,90,100,7.78,overcast clouds
142,Changji,CN,44.0167,87.3167,38.19,65,0,2.24,clear sky
143,Ixtapa,MX,20.7,-105.2,79.83,69,40,6.91,scattered clouds
144,Pangai,TO,-19.8,-174.35,82.51,69,20,12.66,few clouds
145,Barguzin,RU,53.6167,109.6167,1.35,82,25,5.3,scattered clouds
146,Broken Hill,AU,-31.95,141.4333,55.24,68,0,8.79,clear sky
147,Hobyo,SO,5.3505,48.5268,80.31,70,31,16.15,scattered clouds
148,Falkenberg,SE,56.9055,12.4912,37.54,92,100,16.06,light rain
149,Yulara,AU,-25.2406,130.9889,63.39,42,86,5.3,overcast clouds
150,Gushi,CN,34.6425,109.5843,45.99,84,6,4.36,clear sky
151,North Bend,US,43.4065,-124.2243,58.91,91,100,12.66,overcast clouds
152,Genhe,CN,50.7833,121.5167,-13.11,100,24,1.19,few clouds
153,Kandi,BJ,11.1342,2.9386,77.88,24,9,4.7,clear sky
154,Nuuk,GL,64.1835,-51.7216,21.81,79,75,13.8,broken clouds
155,Hervey Bay,AU,-25.2986,152.8535,66.02,76,90,14.0,overcast clouds
156,Klaksvik,FO,62.2266,-6.589,36.52,71,100,25.43,overcast clouds
157,East London,ZA,-33.0153,27.9116,66.63,90,64,4.74,broken clouds
158,Port Alfred,ZA,-33.5906,26.891,66.18,89,91,1.01,overcast clouds
159,Acarau,BR,-2.8856,-40.12,81.75,67,25,19.84,scattered clouds
160,Kruisfontein,ZA,-34.0033,24.7314,59.4,90,34,5.84,scattered clouds
161,Victor Harbor,AU,-35.5667,138.6167,53.01,88,100,7.16,overcast clouds
162,Santiago Del Estero,AR,-27.7951,-64.2615,84.16,26,0,4.52,clear sky
163,Ler,SS,8.3018,30.1418,79.84,43,14,3.2,few clouds
164,Butaritari,KI,3.0707,172.7902,81.66,76,76,11.65,broken clouds
165,Barrow,US,71.2906,-156.7887,12.22,85,100,19.57,light snow
166,Broome,US,42.2506,-75.833,47.66,50,0,6.91,clear sky
167,Helong,CN,42.5397,128.9972,29.5,91,100,2.8,overcast clouds
168,Port Lincoln,AU,-34.7333,135.8667,56.08,76,99,6.22,overcast clouds
169,Mount Isa,AU,-20.7333,139.5,73.17,20,83,10.36,broken clouds
170,Cap Malheureux,MU,-19.9842,57.6142,74.46,77,1,4.0,clear sky
171,Popondetta,PG,-8.7537,148.2534,73.63,93,100,2.8,overcast clouds
172,Carnarvon,AU,-24.8667,113.6333,70.63,79,38,12.28,scattered clouds
173,Amapa,BR,1.0,-52.0,83.19,58,100,2.35,overcast clouds
174,Kieta,PG,-6.2167,155.6333,80.02,78,100,3.4,overcast clouds
175,Marzuq,YE,14.4,46.4667,63.73,52,0,1.72,clear sky
176,Mutata,CO,7.2441,-76.4356,80.4,90,94,2.86,overcast clouds
177,Half Moon Bay,US,37.4636,-122.4286,66.58,54,0,3.44,clear sky
178,Severo-Kurilsk,RU,50.6789,156.125,35.06,69,78,24.79,broken clouds
179,Bousse,BF,12.6606,-1.8922,79.34,17,90,8.48,overcast clouds
180,Progreso,MX,21.2833,-89.6667,89.71,72,94,8.86,light rain
181,Ialibu,PG,-6.2821,143.9935,54.7,95,86,3.56,overcast clouds
182,Vysokogornyy,RU,50.1167,139.15,5.14,98,94,4.05,overcast clouds
183,Kaeo,NZ,-35.1,173.7833,62.33,89,3,15.77,clear sky
184,Nampa,US,43.5407,-116.5635,38.84,63,0,4.61,clear sky
185,Kutum,SD,14.2,24.6667,69.1,25,0,7.31,clear sky
186,Orlik,RU,52.5178,99.825,-5.87,93,98,1.59,overcast clouds
187,Rach Gia,VN,10.0167,105.0833,76.91,89,100,3.15,overcast clouds
188,Luangwa,ZM,-15.6167,30.4167,81.41,48,97,3.06,overcast clouds
189,Kavieng,PG,-2.5744,150.7967,83.01,68,94,13.2,overcast clouds
190,Yeppoon,AU,-23.1333,150.7333,71.38,66,100,8.7,overcast clouds
191,Airai,TL,-8.9266,125.4092,62.38,88,100,1.39,overcast clouds
192,Ambon,ID,-3.6954,128.1814,75.34,100,40,2.3,scattered clouds
193,Pangnirtung,CA,66.1451,-65.7125,5.0,56,75,2.3,broken clouds
194,Ilulissat,GL,69.2167,-51.1,19.42,86,20,5.75,few clouds
195,Otradnoye,RU,59.7775,30.8181,26.65,81,100,7.07,overcast clouds
196,Sao Jose Da Coroa Grande,BR,-8.8978,-35.1478,77.97,79,61,12.12,broken clouds
197,Kostomuksha,RU,64.571,30.5767,11.73,99,90,2.95,overcast clouds
198,Castro,BR,-24.7911,-50.0119,71.47,69,67,5.37,light rain
199,Coahuayana,MX,18.7333,-103.6833,89.1,52,3,6.06,clear sky
200,Yarmouth,US,41.7057,-70.2286,48.96,50,0,11.5,clear sky
201,Aksaray,TR,38.3726,34.0254,52.02,60,83,5.01,broken clouds
202,Aklavik,CA,68.2191,-135.0107,15.96,94,100,11.99,light snow
203,Naryan-Mar,RU,67.6713,53.087,10.44,94,99,11.61,overcast clouds
204,Massakory,TD,12.996,15.7293,78.6,10,3,9.73,clear sky
205,Omboue,GA,-1.5746,9.2618,77.41,89,37,3.8,scattered clouds
206,Mar Del Plata,AR,-38.0023,-57.5575,69.84,52,0,11.99,clear sky
207,Sola,VU,-13.8833,167.55,82.69,73,14,13.51,few clouds
208,Madanapalle,IN,13.55,78.5,67.75,96,100,3.2,overcast clouds
209,Flinders,AU,-34.5833,150.8552,62.19,62,3,11.99,clear sky
210,Sayyan,YE,15.1718,44.3244,51.15,57,51,6.06,broken clouds
211,Teya,RU,60.3778,92.6267,1.06,97,100,3.69,light snow
212,Victoria,HK,22.2855,114.1577,76.17,92,99,10.0,overcast clouds
213,Erzin,TR,36.9559,36.2,61.11,62,1,6.31,clear sky
214,Torrington,US,41.8007,-73.1212,48.78,46,18,3.0,few clouds
215,Vestmanna,FO,62.1564,-7.1664,34.72,80,75,10.36,broken clouds
216,Charters Towers,AU,-20.1,146.2667,74.61,84,37,9.13,scattered clouds
217,Vostok,RU,46.4856,135.8833,5.85,94,5,4.41,clear sky
218,Taganak,PH,6.0833,118.3,75.34,75,100,0.98,overcast clouds
219,Betioky,MG,-23.7167,44.3833,68.13,58,0,10.69,clear sky
220,Coxim,BR,-18.5067,-54.76,89.1,42,79,4.29,broken clouds
221,Bredasdorp,ZA,-34.5322,20.0403,61.9,77,94,5.23,overcast clouds
222,Whitehorse,CA,60.7161,-135.0538,32.77,80,75,13.8,broken clouds
223,El Tigre,VE,8.8875,-64.2454,81.36,64,99,8.16,overcast clouds
224,Kirakira,SB,-10.4544,161.9205,81.68,77,26,7.23,scattered clouds
225,Marsa Matruh,EG,31.3525,27.2453,61.0,67,0,3.44,clear sky
226,Sambava,MG,-14.2667,50.1667,71.06,89,100,6.85,overcast clouds
227,Saint-Denis,FR,48.9167,2.3333,50.77,73,75,14.97,broken clouds
228,Olden,NO,61.8364,6.8064,34.54,78,14,9.37,few clouds
229,Banda Aceh,ID,5.5577,95.3222,78.06,83,90,7.63,overcast clouds
230,Makakilo City,US,21.3469,-158.0858,79.12,64,0,18.41,clear sky
231,Camocim,BR,-2.9022,-40.8411,84.58,62,10,19.75,clear sky
232,Hamilton,US,39.1834,-84.5333,57.25,30,0,11.5,clear sky
233,Asau,RO,46.4333,26.4,33.28,89,100,2.26,overcast clouds
234,Alcantara,BR,-2.4089,-44.4147,89.8,69,18,9.19,few clouds
235,Gander,CA,48.9682,-54.5906,28.53,100,100,6.91,snow
236,Tete,MZ,-16.1564,33.5867,87.89,48,40,9.22,scattered clouds
237,Scottsbluff,US,41.8666,-103.6672,55.78,21,0,6.91,clear sky
238,Sompeta,IN,18.9333,84.6,73.36,78,6,3.53,clear sky
239,Leningradskiy,RU,69.3833,178.4167,-12.01,92,100,9.84,overcast clouds
240,Aksu,CN,41.1231,80.2644,35.62,30,17,1.63,few clouds
241,Bundaberg,AU,-24.85,152.35,65.21,91,66,1.01,broken clouds
242,Kuytun,RU,54.3419,101.5036,7.0,93,84,5.88,broken clouds
243,Codrington,AU,-38.2667,141.9667,52.09,85,100,10.65,overcast clouds
244,Solnechnyy,RU,50.7214,136.6319,10.06,89,25,3.56,scattered clouds
245,Sur,OM,22.5667,59.5289,77.2,62,28,4.03,scattered clouds
246,Kavaratti,IN,10.5669,72.642,79.68,54,46,3.76,scattered clouds
247,Myrhorod,UA,49.9685,33.6089,32.79,85,100,8.5,overcast clouds
248,Bairiki,KI,1.3292,172.9752,80.6,83,20,6.91,few clouds
249,Samarai,PG,-10.6167,150.6667,83.41,71,6,15.39,clear sky
250,Altay,CN,47.8667,88.1167,24.71,95,100,3.13,light snow
251,Mitsamiouli,KM,-11.3847,43.2844,78.76,75,0,9.48,clear sky
252,Vitim,RU,59.4511,112.5578,-23.64,100,96,1.88,overcast clouds
253,Altamont,US,42.2068,-121.7372,39.78,68,100,1.99,overcast clouds
254,Ugoofaaru,MV,5.6667,73.0,81.27,70,23,10.29,few clouds
255,Talnakh,RU,69.4865,88.3972,-27.8,98,100,1.36,overcast clouds
256,Sorong,ID,-0.8833,131.25,80.44,80,100,5.91,overcast clouds
257,Fare,PF,-16.7,-151.0167,79.57,78,5,6.73,clear sky
258,Lasa,IT,46.6166,10.7002,38.7,92,100,8.97,overcast clouds
259,Tiksi,RU,71.6872,128.8694,-22.38,100,78,1.9,broken clouds
260,Hambantota,LK,6.1241,81.1185,75.52,82,19,8.32,few clouds
261,Pietarsaari,FI,63.65,22.6833,22.89,85,19,6.55,few clouds
262,Agadez,NE,19.75,10.25,68.29,20,75,8.01,broken clouds
263,Mkushi,ZM,-13.6202,29.3939,69.8,63,17,3.2,few clouds
264,Maldonado,UY,-34.6667,-54.9167,63.79,74,95,12.19,overcast clouds
265,Pyapon,MM,16.2833,95.6833,73.92,91,41,7.02,scattered clouds
266,Porto Novo,BJ,6.4965,2.6036,82.22,79,8,5.61,clear sky
267,Ancud,CL,-41.8697,-73.8203,56.03,95,100,9.51,overcast clouds
268,Troitsko-Pechorsk,RU,62.7084,56.1964,-17.28,100,31,1.59,scattered clouds
269,Acapulco,MX,16.8634,-99.8901,87.62,62,0,8.05,clear sky
270,Bandarbeyla,SO,9.4942,50.8122,78.44,70,24,19.15,few clouds
271,Iqaluit,CA,63.7506,-68.5145,8.33,78,20,5.75,few clouds
272,Mehamn,NO,71.0357,27.8492,28.35,93,0,6.91,clear sky
273,Lubao,PH,14.9167,120.55,82.11,87,89,4.52,overcast clouds
274,Veraval,IN,20.9,70.3667,74.25,39,48,9.64,scattered clouds
275,Aquiraz,BR,-3.9014,-38.3911,84.29,65,39,14.05,scattered clouds
276,Sao Joao Da Barra,BR,-21.6403,-41.0511,80.69,81,86,14.92,overcast clouds
277,Porto Belo,BR,-27.1578,-48.5531,76.95,92,100,6.24,light rain
278,Yashkul,RU,46.1711,45.3435,51.75,92,100,6.04,overcast clouds
279,Srandakan,ID,-7.9386,110.2506,76.62,88,100,5.12,overcast clouds
280,Linxia,CN,35.6003,103.2064,37.56,47,100,1.81,overcast clouds
281,Alice Springs,AU,-23.7,133.8833,63.95,48,100,0.0,overcast clouds
282,Feijo,BR,-8.1642,-70.3536,82.42,70,98,3.91,moderate rain
283,Touros,BR,-5.1989,-35.4608,79.65,65,61,15.97,broken clouds
284,Coihaique,CL,-45.5752,-72.0662,64.35,55,75,5.75,broken clouds
285,Khatanga,RU,71.9667,102.5,-32.84,100,93,3.31,overcast clouds
286,Hofn,IS,64.2539,-15.2082,36.86,72,64,17.54,broken clouds
287,Tura,IN,25.5198,90.2201,59.27,81,0,3.74,clear sky
288,Ternuvate,UA,47.8305,36.1276,36.75,95,100,14.88,overcast clouds
289,Petropavlovsk-Kamchatskiy,RU,53.0452,158.6483,36.19,70,40,11.18,scattered clouds
290,Aykhal,RU,66.0,111.5,-9.92,98,100,5.03,overcast clouds
291,Pitimbu,BR,-7.4706,-34.8086,77.59,76,100,12.24,overcast clouds
292,Umm Kaddadah,SD,13.6017,26.6876,73.87,26,39,12.66,scattered clouds
293,Saint George,US,37.1041,-113.5841,54.43,29,0,3.44,clear sky
294,Zhuzhou,CN,27.8333,113.15,59.13,87,92,6.78,overcast clouds
295,Kalanguy,RU,51.0167,116.5167,-5.69,94,5,3.22,clear sky
296,Pachino,IT,36.7186,15.0907,61.27,64,90,26.71,overcast clouds
297,Pacific Grove,US,36.6177,-121.9166,67.39,49,0,11.01,clear sky
298,Sawakin,SD,19.1059,37.3321,82.8,67,17,2.06,few clouds
299,Teknaf,BD,20.8624,92.3058,69.37,65,8,10.92,clear sky
300,Abadiania,BR,-16.2042,-48.7069,79.72,77,99,2.68,moderate rain
301,Sulina,RO,45.1559,29.6536,47.68,72,75,8.39,broken clouds
302,Salvador,SV,13.8333,-88.9167,83.05,55,37,1.16,scattered clouds
303,Isangel,VU,-19.55,169.2667,81.57,76,6,3.29,clear sky
304,Chesley,CA,44.2966,-81.0952,40.8,99,100,6.04,overcast clouds
305,Eloy,US,32.7559,-111.5548,73.85,29,100,1.45,overcast clouds
306,Green River,US,41.5286,-109.4662,37.8,48,1,2.77,clear sky
307,Nanortalik,GL,60.1432,-45.2371,30.7,82,100,3.42,overcast clouds
308,Vigrestad,NO,58.5667,5.7,42.58,83,100,35.32,light rain
309,Katsuura,JP,35.1333,140.3,60.15,84,100,12.75,light rain
310,Vestmannaeyjar,IS,63.4427,-20.2734,40.57,65,13,18.52,few clouds
311,Bud,US,39.447,-86.1758,57.67,34,0,12.24,clear sky
312,Lavrentiya,RU,65.5833,-171.0,4.06,86,100,16.84,overcast clouds
313,Pangody,RU,65.85,74.4859,-25.82,99,21,4.97,few clouds
314,Kokopo,PG,-4.352,152.2633,77.47,75,100,3.49,overcast clouds
315,Warrington,GB,53.3925,-2.5802,47.86,91,75,3.44,broken clouds
316,Port-Gentil,GA,-0.7193,8.7815,80.56,89,40,9.22,scattered clouds
317,Zhezkazgan,KZ,47.8043,67.7144,24.48,95,21,4.27,few clouds
318,Cherskiy,RU,68.75,161.3,-38.49,100,43,1.5,scattered clouds
319,Greenville,US,35.6127,-77.3663,62.76,38,0,0.0,clear sky
320,Oktyabrskoye,RU,43.0645,44.7417,32.14,93,74,0.0,fog
321,Lianyuan,CN,27.6883,111.6642,57.7,88,95,2.95,overcast clouds
322,Burgeo,CA,47.6167,-57.6152,31.35,68,38,26.31,scattered clouds
323,Krasnoselkup,RU,65.7,82.4667,-23.69,98,45,8.66,scattered clouds
324,Puerto Escondido,MX,15.85,-97.0667,88.63,58,20,3.44,few clouds
325,Powell River,CA,49.8496,-124.5361,46.4,100,100,10.36,mist
326,Cabedelo,BR,-6.9811,-34.8339,77.67,71,100,13.33,overcast clouds
327,Nancha,CN,47.1333,129.2667,15.51,70,100,0.63,overcast clouds
328,Adrar,MR,20.5022,-10.0711,66.92,16,0,11.72,clear sky
329,Axim,GH,4.8699,-2.2405,79.07,83,25,7.52,scattered clouds
330,Champaign,US,40.1334,-88.2001,58.71,38,0,18.99,clear sky
331,Opuwo,NA,-18.0607,13.84,76.66,49,98,10.42,overcast clouds
332,Smithers,CA,54.7804,-127.1743,30.52,100,100,3.44,fog
333,Panjab,AF,34.388,67.0233,18.77,69,0,4.94,clear sky
334,Mujiayingzi,CN,42.1167,118.7833,33.24,61,20,6.73,few clouds
335,Ruteng,ID,-8.6136,120.4721,62.71,85,100,0.98,overcast clouds
336,Norrkoping,SE,58.5942,16.1826,34.79,93,100,6.91,overcast clouds
337,Havre-Saint-Pierre,CA,50.2334,-63.5986,26.6,63,75,16.11,broken clouds
338,Ust-Nera,RU,64.5667,143.2,-13.31,100,100,2.98,overcast clouds
339,Ylivieska,FI,64.0833,24.55,20.88,97,97,3.02,overcast clouds
340,Gornopravdinsk,RU,60.05,69.9,-12.5,96,7,5.93,clear sky
341,Takoradi,GH,4.8845,-1.7554,79.95,80,54,7.61,broken clouds
342,Bistret,RO,43.9,23.5,48.09,59,100,14.7,overcast clouds
343,Ayan,RU,56.45,138.1667,9.55,70,53,14.05,broken clouds
344,Bilecik,TR,40.0,30.1667,43.45,48,41,8.66,scattered clouds
345,Evensk,RU,61.95,159.2333,11.35,64,100,27.89,overcast clouds
346,Yongan,CN,39.6957,113.6871,34.84,76,0,4.54,clear sky
347,Oriximina,BR,-1.7656,-55.8661,93.61,39,100,4.45,overcast clouds
348,Upata,VE,8.0086,-62.3989,84.2,71,46,5.77,scattered clouds
349,Guryevsk,RU,54.2833,85.9333,14.99,87,100,12.75,overcast clouds
350,Lackawanna,US,42.8256,-78.8234,44.47,49,75,10.36,broken clouds
351,Nishihara,JP,26.1842,127.7558,73.06,94,75,8.05,light rain
352,Lamu,KE,-2.2717,40.902,78.1,87,89,9.55,overcast clouds
353,Arraial Do Cabo,BR,-22.9661,-42.0278,80.56,69,40,21.85,scattered clouds
354,Torbay,CA,47.6666,-52.7314,34.29,96,100,12.66,overcast clouds
355,Vardo,NO,70.3705,31.1107,33.78,86,75,2.3,broken clouds
356,Zhigansk,RU,66.7697,123.3711,-31.29,100,100,0.96,overcast clouds
357,Muisne,EC,0.6,-80.0333,76.08,74,67,11.52,broken clouds
358,Belyy Yar,RU,53.6039,91.3903,28.29,81,0,15.66,clear sky
359,Matay,EG,28.419,30.7792,66.83,47,0,11.72,clear sky
360,Portland,US,45.5234,-122.6762,53.58,80,100,16.11,moderate rain
361,West Bay,KY,19.3667,-81.4167,87.87,73,20,11.5,few clouds
362,Puerto Madryn,AR,-42.7692,-65.0385,79.36,36,99,5.23,overcast clouds
363,Nurota,UZ,40.5614,65.6886,51.57,49,72,3.27,broken clouds
364,Jalu,LY,29.0331,21.5482,62.6,53,0,4.9,clear sky
365,Biak,ID,-0.9131,122.8766,77.07,82,100,2.95,overcast clouds
366,Skjervoy,NO,70.0311,20.9714,24.8,54,0,15.61,clear sky
367,Khandyga,RU,62.6667,135.6,-42.95,100,60,2.1,broken clouds
368,Almenara,BR,-16.1836,-40.6944,77.09,73,61,5.17,broken clouds
369,Imbituba,BR,-28.24,-48.6703,73.81,86,100,13.47,overcast clouds
370,Frankfort,ZA,-27.2667,28.4833,57.92,75,65,3.85,broken clouds
371,Barinas,VE,8.6226,-70.2075,89.64,48,10,9.22,clear sky
372,Ankpa,NG,7.3706,7.6253,76.77,33,2,0.49,clear sky
373,Borovskoy,KZ,53.8,64.15,6.8,97,58,3.94,broken clouds
374,Ryazhsk,RU,53.7038,40.1109,35.51,100,100,7.02,overcast clouds
375,Viedma,AR,-40.8135,-62.9967,85.98,18,46,13.0,scattered clouds
376,Golden,US,39.7555,-105.2211,55.2,21,20,8.05,few clouds
377,Mikhaylovskoye,RU,51.8239,79.7172,16.48,91,100,11.56,overcast clouds
378,Chor,PK,25.5167,69.7667,71.6,23,0,7.09,clear sky
379,Hearst,CA,49.6835,-83.6665,25.05,78,82,6.87,broken clouds
380,Mount Gambier,AU,-37.8333,140.7667,50.72,90,100,6.4,overcast clouds
381,Farmington,US,36.7281,-108.2187,46.78,26,0,1.99,clear sky
382,Ahuimanu,US,21.4447,-157.8378,80.62,68,40,18.41,scattered clouds
383,Kununurra,AU,-15.7667,128.7333,76.98,94,40,3.44,light rain
384,Nieuw Amsterdam,SR,5.8833,-55.0833,86.02,74,40,5.75,scattered clouds
385,Chinhoyi,ZW,-17.3667,30.2,71.17,74,100,3.36,overcast clouds
386,Oksfjord,NO,70.2396,22.3479,33.98,85,27,13.0,scattered clouds
387,Santa Maria,BR,-29.6842,-53.8069,74.5,64,75,4.61,broken clouds
388,Kerema,PG,-7.9631,145.7785,77.04,86,41,3.0,scattered clouds
389,Ransang,PH,8.9603,117.5828,78.03,82,99,2.84,overcast clouds
390,Usta Muhammad,PK,28.1794,68.0445,65.48,24,3,1.05,clear sky
391,Nelson Bay,AU,-32.7167,152.15,57.99,73,5,10.0,clear sky
392,Palmer,US,42.1584,-72.3287,48.61,43,40,9.22,scattered clouds
393,Dubbo,AU,-32.25,148.6167,46.53,93,50,0.0,scattered clouds
394,Macamic,CA,48.7502,-78.9996,26.22,87,100,11.59,snow
395,Sisimiut,GL,66.9395,-53.6735,18.09,89,100,6.2,overcast clouds
396,Lompoc,US,34.6391,-120.4579,73.69,23,0,1.99,clear sky
397,Glamoc,BA,44.0458,16.8486,44.6,98,100,7.76,overcast clouds
398,Hashtrud,IR,37.4779,47.0508,46.15,30,100,2.95,overcast clouds
399,Port Hardy,CA,50.6996,-127.4199,44.78,93,100,3.44,light rain
400,Kovdor,RU,67.5662,30.4758,6.82,98,64,0.78,broken clouds
401,Iskateley,RU,67.6803,53.1512,10.02,94,98,11.56,overcast clouds
402,Marovoay,MG,-16.1,46.6333,80.06,75,61,7.36,light rain
403,Mackenzie,CA,55.2999,-123.1698,35.82,87,75,8.05,broken clouds
404,Phalodi,IN,27.1333,72.3667,65.66,29,0,6.42,clear sky
405,Kushima,JP,31.4583,131.2333,61.43,95,99,4.34,light rain
406,Mecca,SA,21.4267,39.8261,80.2,63,91,2.68,overcast clouds
407,Quelimane,MZ,-17.8786,36.8883,78.75,73,0,6.91,clear sky
408,Ishinomaki,JP,38.4167,141.3,46.04,72,100,5.23,overcast clouds
409,Nemuro,JP,43.3236,145.575,38.03,61,7,9.53,clear sky
410,Itigi,TZ,-5.7,34.4833,68.11,70,47,0.63,scattered clouds
411,Krasnooktyabrskiy,RU,44.9328,38.3712,47.08,77,95,12.73,overcast clouds
412,Sioux Lookout,CA,50.1001,-91.917,24.87,86,100,5.75,overcast clouds
413,Poyarkovo,RU,49.6,128.6833,1.18,96,94,3.89,overcast clouds
414,Cehegin,ES,38.0924,-1.7985,56.68,67,100,16.06,overcast clouds
415,Bubaque,GW,11.2833,-15.8333,83.37,63,84,11.81,broken clouds
416,Shahrud,IR,36.4182,54.9763,45.59,36,84,5.08,broken clouds
417,Sharjah,AE,25.3573,55.4033,76.98,64,0,6.91,clear sky
418,Ostrovnoy,RU,68.0531,39.5131,35.49,79,100,7.09,overcast clouds
419,Nola,IT,40.922,14.5329,54.16,92,100,21.47,light rain
420,Beringovskiy,RU,63.05,179.3167,-9.85,97,7,11.92,clear sky
421,Suez,EG,29.9737,32.5263,65.8,73,0,6.98,clear sky
422,Sembe,CG,1.6481,14.5806,72.48,79,33,2.89,scattered clouds
423,Wamba,NG,8.9333,8.6,75.74,27,1,4.18,clear sky
424,Atherton,GB,53.5237,-2.4935,47.28,92,23,3.06,few clouds
425,Laguna,US,38.421,-121.4238,64.18,51,0,1.01,clear sky
426,Kloulklubed,PW,7.0419,134.2556,77.5,72,92,8.95,overcast clouds
427,Araouane,ML,18.9048,-3.5265,72.18,16,100,10.36,overcast clouds
428,Tupaciguara,BR,-18.5922,-48.705,77.68,55,81,7.27,broken clouds
429,Ajdabiya,LY,30.7554,20.2263,62.71,42,0,9.66,clear sky
430,Salalah,OM,17.0151,54.0924,78.89,73,0,5.75,clear sky
431,Fayetteville,US,35.0527,-78.8784,62.8,30,20,5.75,few clouds
432,Wilmington,US,34.2257,-77.9447,66.11,57,20,3.44,few clouds
433,Qaqortoq,GL,60.7167,-46.0333,23.34,80,100,5.73,overcast clouds
434,San Jeronimo,PE,-11.9472,-75.2829,66.76,34,100,8.68,overcast clouds
435,Arawa,PG,-6.2132,155.5367,77.65,87,100,2.59,overcast clouds
436,Chatra,IN,24.2167,84.8667,55.18,61,1,4.99,clear sky
437,Barra Do Corda,BR,-5.5,-45.25,88.18,58,70,2.51,broken clouds
438,Rawson,AR,-43.3002,-65.1023,78.84,34,99,11.27,overcast clouds
439,Itoman,JP,26.1247,127.6694,73.78,92,100,8.05,overcast clouds
440,Kijang,KR,35.2442,129.2139,55.13,83,100,6.15,light rain
441,Nichinan,JP,31.6,131.3667,62.91,94,100,5.93,light rain
442,Hvolsvollur,IS,63.7533,-20.2243,33.12,71,11,8.61,few clouds
443,Greenlaw,GB,55.7068,-2.4624,35.6,96,57,2.93,broken clouds
444,Karratha,AU,-20.7377,116.8463,77.83,57,59,11.54,broken clouds
445,Zalantun,CN,48.0,122.7167,19.78,54,100,3.8,overcast clouds
446,Helena,US,46.5927,-112.0361,43.25,65,100,1.99,overcast clouds
447,Penzance,GB,50.1186,-5.5371,50.68,66,27,15.37,scattered clouds
448,Conakry,GN,9.538,-13.6773,83.52,60,68,6.06,broken clouds
449,Xining,CN,36.6167,101.7667,33.17,58,100,2.28,overcast clouds
450,Irricana,CA,51.3237,-113.6048,42.78,78,100,12.01,overcast clouds
451,Jaen,ES,38.0,-3.5,54.91,71,100,12.53,overcast clouds
452,Gat,IL,31.61,34.7642,66.81,77,0,3.15,clear sky
453,Coronado,US,32.6859,-117.1831,77.52,23,75,8.01,broken clouds
454,Deputatskiy,RU,69.3,139.9,-33.34,100,69,0.94,broken clouds
455,Capao Bonito,BR,-24.0058,-48.3494,72.54,77,100,1.36,overcast clouds
456,Kattivakkam,IN,13.2167,80.3167,77.09,90,75,11.86,broken clouds
457,Murovane,UA,49.5214,22.9367,24.94,95,81,3.06,broken clouds
458,San Cristobal,VE,7.7669,-72.225,78.98,56,53,2.06,broken clouds
459,Kidal,ML,18.4411,1.4078,78.85,12,100,10.02,overcast clouds
460,Great Yarmouth,GB,52.6083,1.7305,44.94,86,100,11.9,overcast clouds
461,Shakiso,ET,5.75,38.9167,61.41,60,100,2.8,overcast clouds
462,Wageningen,NL,51.9667,5.6667,46.49,93,100,9.22,overcast clouds
463,Yichang,CN,30.7144,111.2847,55.71,85,37,2.01,scattered clouds
464,Sartell,US,45.6216,-94.2069,36.32,63,0,4.61,clear sky
465,Luganville,VU,-15.5333,167.1667,81.84,77,41,2.3,scattered clouds
466,Komsomolskiy,UZ,40.4272,71.7189,41.72,87,100,4.61,fog
467,Jhang,PK,33.6748,72.6963,53.62,32,0,5.23,clear sky
468,Dutse,NG,11.7594,9.3392,71.56,17,0,7.7,clear sky
469,Semey,KZ,50.4111,80.2275,17.89,90,99,9.95,overcast clouds
470,Narsaq,GL,60.9167,-46.05,37.62,74,100,6.46,overcast clouds
471,Coquimbo,CL,-29.9533,-71.3436,65.93,68,20,13.8,few clouds
472,Colares,PT,38.7992,-9.4469,66.33,90,75,15.99,broken clouds
473,Berdigestyakh,RU,62.0989,126.6992,-18.51,100,100,1.83,overcast clouds
474,Sabha,LY,27.0377,14.4283,57.15,24,1,6.29,clear sky
475,Morgan City,US,29.6994,-91.2068,53.02,82,100,4.61,light rain
476,Toktogul,KG,41.8708,72.9402,38.8,88,99,3.36,overcast clouds
477,Tromso,NO,69.6496,18.957,28.38,93,0,0.0,clear sky
478,Sibolga,ID,1.7427,98.7792,74.5,90,99,2.64,overcast clouds
479,Itaituba,BR,-4.2761,-55.9836,95.16,46,40,5.75,scattered clouds
480,Ridgecrest,US,35.6225,-117.6709,60.69,13,20,1.01,few clouds
481,College,US,64.8569,-147.8028,19.2,87,75,0.0,broken clouds
482,Pudozh,RU,61.8099,36.5345,15.31,88,79,6.73,broken clouds
483,Akyab,MM,20.15,92.9,73.58,72,4,10.54,clear sky
484,Maromitsa,RU,59.8683,48.0123,12.11,97,100,3.94,overcast clouds
485,Sterling,US,39.0062,-77.4286,58.89,24,0,13.0,clear sky
486,Berlevag,NO,70.8578,29.0864,28.4,93,20,12.66,few clouds
487,Yatou,CN,37.15,122.3833,44.78,62,90,5.86,overcast clouds
488,Doha,QA,25.2867,51.5333,75.18,57,0,8.05,clear sky
489,Gaoual,GN,11.75,-13.2,78.96,29,100,2.66,overcast clouds
490,Neiafu,TO,-18.65,-173.9833,79.48,83,40,6.91,scattered clouds
491,Zyryanka,RU,65.75,150.85,-22.52,96,100,6.85,overcast clouds
492,Muros,ES,42.7762,-9.0603,64.09,93,100,23.38,overcast clouds
493,Darhan,MN,49.4867,105.9228,15.17,83,63,5.32,broken clouds
494,Husavik,IS,66.0449,-17.3389,34.14,84,35,7.7,scattered clouds
495,San Javier,ES,37.8063,-0.8374,61.9,62,0,4.61,clear sky
496,Neuquen,AR,-38.9516,-68.0591,89.49,17,0,8.05,clear sky
497,Mnogovershinnyy,RU,53.9353,139.9242,11.7,87,94,13.04,overcast clouds
498,Bilibino,RU,68.0546,166.4372,-29.83,99,15,4.61,few clouds
499,Paamiut,GL,61.994,-49.6678,23.11,78,99,14.38,overcast clouds
500,Piranhas,BR,-16.4269,-51.8222,86.67,49,100,4.65,overcast clouds
501,Nishiwaki,JP,34.9833,134.9667,56.59,90,100,3.6,overcast clouds
502,Urumqi,CN,43.801,87.6005,32.95,75,0,2.24,clear sky
503,Vila Franca Do Campo,PT,37.7167,-25.4333,64.2,92,100,16.13,overcast clouds
504,Sao Geraldo Do Araguaia,BR,-6.4006,-48.555,84.67,61,100,0.83,overcast clouds
505,Maragogi,BR,-9.0122,-35.2225,77.61,80,60,11.83,broken clouds
506,Bereda,ES,43.2686,-7.5406,59.58,100,100,12.53,light rain
507,Bay Roberts,CA,47.5999,-53.2648,36.25,93,93,8.99,overcast clouds
508,Chimbarongo,CL,-34.7,-71.05,86.88,10,55,10.02,broken clouds
509,Nabire,ID,-3.3667,135.4833,76.26,90,100,2.53,overcast clouds
510,Xuddur,SO,4.1213,43.8894,75.88,43,84,8.5,broken clouds
511,Sept-Iles,CA,50.2001,-66.3821,26.6,61,75,17.27,broken clouds
512,Roma,US,43.2128,-75.4557,43.83,54,0,0.0,clear sky
513,Poum,NC,-20.2333,164.0167,79.63,80,55,8.88,broken clouds
514,Ukiah,US,39.1502,-123.2078,65.37,45,97,5.06,overcast clouds
515,Qobustan,AZ,40.0824,49.412,60.35,55,100,15.26,overcast clouds
516,Stokmarknes,NO,68.5646,14.9108,35.56,59,0,5.75,clear sky
517,Hami,CN,42.8,93.45,35.04,50,51,5.35,broken clouds
518,Ponte Nova,BR,-20.4164,-42.9086,78.39,70,100,7.16,overcast clouds
519,Walvis Bay,NA,-22.9575,14.5053,65.35,72,0,4.61,clear sky
520,Arlit,NE,18.7369,7.3853,74.62,17,100,11.03,overcast clouds
521,Saint-Pierre,RE,-21.3393,55.4781,74.88,73,40,5.75,scattered clouds
522,Verkhnevilyuysk,RU,63.4453,120.3167,-9.44,99,100,0.65,overcast clouds
523,Cervo,ES,43.6702,-7.4101,58.96,87,100,19.73,light rain
524,Bayir,TR,37.2687,28.2167,50.52,90,79,4.12,broken clouds
525,Vung Tau,VN,10.346,107.0843,78.57,88,100,9.37,overcast clouds
526,Durusu,TR,41.3053,28.6767,57.38,82,100,4.0,overcast clouds
527,Sokoto,NG,13.0609,5.239,75.56,13,2,10.6,clear sky
528,Kochki,RU,54.3358,80.4806,5.5,91,99,14.43,overcast clouds
529,Saint-Louis,SN,16.3333,-15.0,85.64,12,28,12.68,scattered clouds
530,Faratsiho,MG,-19.4,46.95,58.75,85,29,2.8,light rain
531,Tacotalpa,MX,17.6,-92.8167,77.86,92,95,3.27,moderate rain
532,Kalmunai,LK,7.4167,81.8167,77.67,82,47,2.59,scattered clouds
533,Chiusi,IT,43.016,11.9475,46.51,87,100,11.25,overcast clouds
534,Dobra,RO,44.7833,25.7167,43.9,72,100,9.95,overcast clouds
535,Pochutla,MX,15.7432,-96.4661,86.83,61,44,7.72,light rain
536,Tuskegee,US,32.424,-85.6916,65.08,78,100,1.99,overcast clouds
537,Caucaia,BR,-3.7361,-38.6531,84.15,71,0,16.11,clear sky
538,La Trinidad,PH,16.455,120.5875,61.03,85,93,4.34,overcast clouds
539,Mwinilunga,ZM,-11.7358,24.4293,63.14,92,100,4.25,overcast clouds
540,Yar-Sale,RU,66.8333,70.8333,-16.31,98,90,5.64,overcast clouds
541,Guiratinga,BR,-16.3494,-53.7583,74.01,83,100,12.71,overcast clouds
542,Markova,UA,48.6758,24.4138,25.27,93,56,3.15,broken clouds
543,Cedar City,US,37.6775,-113.0619,43.39,41,0,0.0,clear sky
544,Sehithwa,BW,-20.4667,22.7167,75.65,61,77,9.42,broken clouds
545,Contamana,PE,-7.3333,-75.0167,93.13,43,100,7.23,heavy intensity rain
546,Chamrajnagar,IN,11.9167,76.95,66.07,94,99,3.31,overcast clouds
547,Champerico,GT,14.3,-91.9167,93.74,69,94,6.85,overcast clouds
548,Dong Xoai,VN,11.5333,106.9167,72.97,98,100,3.76,light rain
549,Moroni,KM,-11.7022,43.2551,77.32,80,0,2.93,clear sky
550,Misratah,LY,32.3754,15.0925,67.86,33,100,16.58,overcast clouds
551,Harper,LR,4.375,-7.7169,78.67,83,55,8.61,broken clouds
552,Kibakwe,TZ,-6.7167,36.3667,67.59,82,20,4.23,light rain
553,Isilkul,RU,54.9109,71.2728,-0.18,92,15,10.2,few clouds
554,Jatara,IN,25.0167,79.05,61.41,43,6,4.34,clear sky
555,Strzelin,PL,50.7816,17.0648,39.58,88,100,4.23,overcast clouds
556,Rio Grande,BR,-32.035,-52.0986,71.71,74,100,7.45,overcast clouds
557,Auki,SB,-8.7676,160.7034,79.48,81,13,3.58,few clouds
558,Henties Bay,NA,-22.116,14.2845,62.11,79,0,9.26,clear sky
559,Tanda,IN,26.55,82.65,61.83,48,21,6.8,few clouds
560,Malindi,KE,-3.2175,40.1191,80.76,83,20,9.22,few clouds
561,Antalaha,MG,-14.9003,50.2788,70.39,91,100,8.1,light rain
562,Alugan,PH,12.2188,125.4808,79.77,86,100,8.7,overcast clouds
563,Kolpashevo,RU,58.3131,82.9089,0.48,94,100,11.59,overcast clouds
564,Dzilam Gonzalez,MX,21.2833,-88.9333,88.75,50,93,4.65,overcast clouds
565,Ushtobe,KZ,45.2514,77.9838,38.73,97,100,12.06,overcast clouds
566,Tsagan Aman,RU,47.5639,46.7218,50.4,85,100,8.16,overcast clouds
567,Los Algarrobos,PA,8.5,-82.4333,77.41,94,75,4.61,thunderstorm with light rain
568,Sao Gabriel Da Cachoeira,BR,-0.1303,-67.0892,87.6,66,40,4.61,scattered clouds
569,Aksarka,RU,66.5606,67.7975,-12.03,92,83,8.01,broken clouds
570,Calama,CL,-22.4667,-68.9333,73.89,11,0,23.02,clear sky
571,Baker City,US,44.7749,-117.8344,45.64,54,0,19.57,clear sky
572,Wellington,NZ,-41.2866,174.7756,61.07,77,92,6.91,overcast clouds
573,Hudson Bay,CA,52.85,-102.3842,35.49,81,100,7.87,overcast clouds
574,San Policarpo,PH,12.1791,125.5072,80.33,84,100,9.35,overcast clouds
575,Kencong,ID,-8.2833,113.3667,75.42,92,99,2.98,overcast clouds
576,Oskarshamn,SE,57.2645,16.4484,38.98,80,100,15.68,overcast clouds
577,Lorengau,PG,-2.0226,147.2712,81.41,78,100,6.96,overcast clouds
578,Ordynskoye,RU,54.3656,81.8994,11.28,90,100,14.29,overcast clouds
579,Winterberg,DE,51.2,8.5333,40.1,97,100,9.06,light rain
580,Okha,RU,53.5739,142.9478,22.17,84,100,19.3,light snow
581,Ereymentau,KZ,51.6199,73.1033,8.78,96,94,7.52,overcast clouds
582,Yokadouma,CM,3.5167,15.05,73.96,65,49,1.3,scattered clouds
583,Fujieda,JP,34.8667,138.2667,60.85,87,100,8.99,overcast clouds
584,Orsha,BY,54.5153,30.4053,22.82,97,94,6.24,overcast clouds
585,Uthal,PK,25.8072,66.6219,75.0,34,8,2.42,clear sky
586,Starodubskoye,RU,44.5631,44.0153,49.89,95,100,2.64,overcast clouds
587,Itarema,BR,-2.9248,-39.9167,81.21,69,32,18.63,scattered clouds
588,Maragogipe,BR,-12.7778,-38.9194,78.89,74,49,8.66,scattered clouds
589,Liberal,US,37.0431,-100.921,55.54,26,0,13.8,clear sky
590,Comodoro Rivadavia,AR,-45.8667,-67.5,78.66,31,0,27.63,clear sky
591,Praia,CV,14.9215,-23.5087,79.34,65,0,13.8,clear sky
592,Gidam,IN,18.9833,81.4,67.78,66,100,3.02,overcast clouds
593,Khasan,RU,42.4308,130.6434,41.2,72,100,6.78,overcast clouds
594,Nacogdoches,US,31.6002,-94.6335,60.76,52,100,5.75,overcast clouds
595,Yerbogachen,RU,61.2767,108.0108,-27.62,100,77,2.19,broken clouds
596,Linhares,BR,-19.3911,-40.0722,76.05,77,36,7.43,scattered clouds
597,Chicama,PE,-7.8447,-79.1469,68.54,56,8,10.07,clear sky
598,Anantapur,IN,14.6833,77.6,70.9,90,98,2.95,overcast clouds
599,Rocha,UY,-34.4833,-54.3333,63.9,72,78,13.15,broken clouds
600,Tsabong,BW,-26.0217,22.401,82.63,27,56,5.35,broken clouds
601,Chipinge,ZW,-20.1883,32.6236,64.0,79,100,5.82,overcast clouds
602,Naze,JP,28.3667,129.4833,70.72,87,100,14.43,overcast clouds
603,Bossier City,US,32.516,-93.7321,61.38,37,100,5.75,overcast clouds
604,Horki,BY,54.2861,30.9842,23.74,97,97,5.97,overcast clouds
605,Perambalur,IN,11.2333,78.8833,73.89,87,54,3.96,broken clouds
606,Grand Island,US,40.925,-98.342,59.29,21,0,6.91,clear sky
607,Tabou,CI,4.423,-7.3528,78.26,85,39,7.43,light rain
608,Salinas,US,36.6777,-121.6555,70.02,35,0,9.22,clear sky
609,Tarko-Sale,RU,64.9225,77.785,-21.44,97,31,9.64,scattered clouds
610,Hvide Sande,DK,56.0045,8.1294,40.14,90,100,19.44,overcast clouds
611,Arman,RU,59.7,150.1667,6.35,81,100,14.88,overcast clouds
612,Manggar,ID,-2.8833,108.2667,79.39,85,100,5.73,overcast clouds
613,Lagoa,PT,39.05,-27.9833,60.87,87,100,18.48,moderate rain
614,Yamada,JP,39.4667,141.95,44.31,73,100,4.43,overcast clouds
615,Bac Lieu,VN,9.285,105.7244,76.98,91,100,5.84,overcast clouds
616,Hirara,JP,24.8,125.2833,77.25,82,99,10.02,overcast clouds
617,Trat,TH,12.5,102.5,75.11,94,100,3.91,overcast clouds
618,Tianpeng,CN,30.9866,103.9393,61.72,61,100,3.56,overcast clouds
619,Rathdrum,US,47.8137,-116.892,38.21,70,100,5.75,overcast clouds
620,La Joya,MX,18.6667,-99.4667,84.38,38,0,3.91,clear sky
621,Batemans Bay,AU,-35.7167,150.1833,59.09,64,0,5.26,clear sky
622,Honningsvag,NO,70.9821,25.9704,29.95,93,100,8.05,overcast clouds
623,Nouadhibou,MR,20.931,-17.0347,71.58,60,0,12.66,clear sky
624,Rosarito,MX,32.3333,-117.0333,76.62,30,96,7.47,overcast clouds
625,Businga,CD,3.3333,20.8833,72.01,94,66,3.02,broken clouds
626,Trairi,BR,-3.2778,-39.2689,81.32,66,11,15.79,few clouds
627,Urucui,BR,-7.2294,-44.5561,93.94,34,36,3.83,scattered clouds
628,Constitucion,CL,-35.3333,-72.4167,70.52,60,54,19.15,broken clouds
629,Bougouni,ML,11.417,-7.479,76.64,17,79,5.39,broken clouds
630,Mayo,US,38.8876,-76.5119,59.86,36,0,11.5,clear sky
631,Mizdah,LY,31.4451,12.9801,53.87,29,67,11.07,broken clouds
632,Predivinsk,RU,57.0669,93.4378,23.2,95,100,6.98,light snow
633,Manokwari,ID,-0.8667,134.0833,78.06,81,98,2.62,overcast clouds
634,Bani,DO,18.2833,-70.3333,84.85,63,7,15.99,clear sky
635,Kyra,RU,49.5776,111.9753,0.99,98,32,1.83,scattered clouds
636,Daru,PG,-9.0763,143.2092,80.44,81,100,4.83,overcast clouds
637,Virginia Beach,US,36.8529,-75.978,61.02,49,40,5.75,scattered clouds
638,Mackay,AU,-21.15,149.2,71.69,71,18,9.55,few clouds
639,Evanston,US,42.0411,-87.6901,53.19,35,20,13.8,few clouds
640,Gotsu,JP,35.0,132.2167,56.08,90,100,6.85,light rain
641,Maputo,MZ,-25.9653,32.5892,78.48,73,75,6.91,broken clouds
642,Bheramara,BD,24.0232,88.9925,64.33,53,10,6.6,clear sky
643,Lexington,US,37.9887,-84.4777,58.24,28,0,9.22,clear sky
644,Farroupilha,BR,-29.225,-51.3478,66.42,91,68,7.0,broken clouds
645,Maumere,ID,-8.6199,122.2111,80.51,77,100,2.46,overcast clouds
646,Manaure,CO,11.7751,-72.4445,86.56,60,30,14.56,scattered clouds
647,Znamenskoye,RU,57.1281,73.8282,-4.49,91,100,9.95,overcast clouds
648,Palafrugell,ES,41.9174,3.1631,53.35,37,81,1.99,broken clouds
649,Piste,MX,20.7,-88.5833,88.25,51,97,1.9,light rain
650,Dodge City,US,37.7528,-100.0171,61.25,29,0,16.11,clear sky
651,Saint Anthony,US,45.0205,-93.218,39.13,60,0,4.61,clear sky
652,Stornoway,GB,58.2093,-6.3865,40.96,87,40,3.44,scattered clouds
653,Praia Da Vitoria,PT,38.7333,-27.0667,62.85,88,0,17.49,clear sky
654,Conde,BR,-7.2597,-34.9075,76.46,88,100,10.36,overcast clouds
655,Phon,TH,15.816,102.5998,81.05,76,95,6.35,overcast clouds
656,Aitape,PG,-3.1374,142.3475,77.88,85,100,3.18,overcast clouds
657,Manzanillo,CU,20.3433,-77.1167,88.57,51,100,11.05,overcast clouds
658,Oum Hadjer,TD,13.2954,19.6966,78.51,14,22,9.42,few clouds
659,Nizhneudinsk,RU,54.9076,99.0276,14.92,84,100,3.29,overcast clouds
660,Maniitsoq,GL,65.4167,-52.9,20.05,82,100,17.34,overcast clouds
661,Meulaboh,ID,4.1363,96.1285,75.33,90,99,4.76,light rain
662,Fairmount,US,43.0473,-76.2385,46.0,56,75,9.22,broken clouds
663,Vienna,AT,48.2085,16.3721,42.89,87,75,4.61,broken clouds
664,Terrace,CA,54.5163,-128.6035,37.31,93,100,0.0,light intensity drizzle
665,Vila,PT,42.0304,-8.1588,52.68,96,100,13.35,light rain
666,Soyo,AO,-6.1349,12.3689,77.9,83,13,6.76,few clouds
667,Nan,TH,18.8333,100.6667,68.38,91,17,1.57,few clouds
668,Biltine,TD,14.5333,20.9167,76.19,15,4,8.48,clear sky
669,Sistranda,NO,63.7256,8.834,35.56,58,7,22.77,clear sky
670,Haverfordwest,GB,51.8017,-4.9691,44.19,93,26,9.15,light rain
671,Copiapo,CL,-27.3667,-70.3333,64.09,28,0,9.1,clear sky
672,Magdalena,PH,14.1999,121.429,78.35,92,100,4.52,light rain
673,Belmonte,BR,-15.8631,-38.8828,76.06,80,59,7.31,broken clouds
674,Tucumcari,US,35.1717,-103.725,60.94,22,0,5.75,clear sky
675,Fairbanks,US,64.8378,-147.7164,19.22,87,75,0.0,broken clouds
676,Sinfra,CI,6.6167,-5.9167,75.61,70,50,2.1,scattered clouds
677,Grand-Lahou,CI,5.1367,-5.0242,79.34,83,100,7.94,overcast clouds
678,Cuicatlan,MX,17.8,-96.9667,78.31,66,79,4.97,broken clouds
679,Gizo,SB,-8.103,156.8419,82.49,74,99,7.0,overcast clouds
680,Alappuzha,IN,9.49,76.3264,75.99,73,53,4.43,broken clouds
681,Marienburg,PL,54.0359,19.0266,35.85,94,100,5.73,overcast clouds
682,Noumea,NC,-22.2763,166.4572,81.0,99,92,3.78,overcast clouds
683,Bonthe,SL,7.5264,-12.505,80.42,79,95,7.47,light rain
684,Kismayo,SO,-0.3582,42.5454,79.3,83,50,10.58,light rain
685,Rantauprapat,ID,2.1,99.8333,71.42,96,92,2.13,overcast clouds
686,Te Anau,NZ,-45.4167,167.7167,50.74,71,11,7.25,few clouds
687,Geraldton,AU,-28.7667,114.6,61.21,94,75,6.91,broken clouds
688,Marsh Harbour,BS,26.5412,-77.0636,79.95,75,75,12.84,broken clouds
689,Barranca,PE,-10.75,-77.7667,69.31,73,18,9.13,few clouds
690,Kupang,ID,-10.1667,123.5833,79.77,83,100,7.92,overcast clouds
691,Korla,CN,41.7597,86.1469,33.22,33,9,3.22,clear sky
692,Nioro,GM,13.35,-15.75,80.73,20,32,7.31,scattered clouds
693,Wanning,CN,18.8003,110.3967,75.88,91,67,2.04,broken clouds
694,Russell,US,32.3502,-85.1999,64.96,48,100,3.44,overcast clouds
695,Kailua,US,21.4022,-157.7394,80.58,66,40,12.66,scattered clouds
696,Kasongo-Lunda,CD,-6.4667,16.8167,69.78,96,100,2.19,overcast clouds
697,Bogotol,RU,56.2078,89.5342,15.39,91,100,14.83,overcast clouds
698,Labuhan,ID,-6.8844,112.2051,78.44,85,99,9.24,light rain
699,Byron Bay,AU,-28.65,153.6167,61.95,69,100,5.66,overcast clouds
700,Shirokiy,RU,49.758,129.523,-3.03,100,95,3.36,overcast clouds
701,Sylva,RU,58.0348,56.7635,15.17,99,86,1.97,overcast clouds
702,Shenjiamen,CN,29.9576,122.298,61.16,84,100,21.65,overcast clouds
703,Chemodanovka,RU,53.2316,45.2474,33.42,99,100,12.5,snow
704,Kasongo,CD,-4.45,26.6667,65.28,98,82,1.59,broken clouds
705,Roald,NO,62.5833,6.1333,38.08,41,0,18.41,clear sky
706,Port-Cartier,CA,50.0334,-66.8654,26.28,72,99,12.77,overcast clouds
707,Kavarna,BG,43.4333,28.3333,52.57,86,100,14.65,overcast clouds
708,Seoul,KR,37.5683,126.9778,51.24,82,75,5.75,mist
709,Kachiry,KZ,53.0675,76.1036,9.45,89,97,12.41,overcast clouds
710,Yarada,IN,17.65,83.2667,79.12,94,20,2.3,mist
711,Stephenville,US,32.2207,-98.2023,56.19,76,100,5.75,overcast clouds
